[{"title":"HKW Nord Power to heat","longitude":13.033926,"latitude":47.827775,"image":"/content/dam/web18/bilder/gebaeude/kraftwerke/Wärmespeicher HKW Nord.jpg","mapType":"heizkraftwerk","tableItems":[],"path":"/ueber-die-salzburg-ag/unternehmen/erzeugung/erzeugungsanlagen/hkw-nord-power-to-heat.html","mapTypeLabel":"Heiz(kraft)werk","region":"Stadt Salzburg"},{"title":"PV-Anlage Geschäftsstelle Golling","longitude":13.180723,"latitude":47.591751,"mapType":"photovoltaikanlage","tableItems":[],"path":"/ueber-die-salzburg-ag/unternehmen/erzeugung/erzeugungsanlagen/pv-anlage-geschaeftsstelle-golling.html","mapTypeLabel":"Photovoltaikanlage","region":"Tennengau"},{"title":"HKW Mitte Power to heat","longitude":13.038196,"latitude":47.809199,"mapType":"heizkraftwerk","tableItems":[],"path":"/ueber-die-salzburg-ag/unternehmen/erzeugung/erzeugungsanlagen/hkw-mitte-power-to-heat.html","mapTypeLabel":"Heiz(kraft)werk","region":"Stadt Salzburg"},{"title":"PV-Anlage Zentrallager Salzburg AG","longitude":13.051664,"latitude":47.813101,"mapType":"photovoltaikanlage","tableItems":[],"path":"/ueber-die-salzburg-ag/unternehmen/erzeugung/erzeugungsanlagen/pv-anlage-zentrallager.html","mapTypeLabel":"Photovoltaikanlage","region":"Stadt Salzburg"},{"title":"PV-Anlage Bahnhof Lamprechtshausen","longitude":12.951766,"latitude":47.990422,"mapType":"photovoltaikanlage","tableItems":[],"path":"/ueber-die-salzburg-ag/unternehmen/erzeugung/erzeugungsanlagen/pv-anlage-bahnhof-lamprechtshausen.html","mapTypeLabel":"Photovoltaikanlage","region":"Flachgau"},{"title":"Ökoenergie Bergheim","longitude":13.034607,"latitude":47.840973,"image":"/content/dam/web18/bilder/unternehmen/erzeugungsanlagen/Oekoenergie-Bergheim.jpg","mapType":"heizkraftwerk","tableItems":[],"path":"/ueber-die-salzburg-ag/unternehmen/erzeugung/erzeugungsanlagen/oekoenergie-bergheim.html","mapTypeLabel":"Heizkraftwerk","region":"Flachgau"},{"title":"PV-Anlage Geslau 1 - DE","longitude":10.308758,"latitude":49.336423,"mapType":"photovolta","tableItems":[],"path":"/ueber-die-salzburg-ag/unternehmen/erzeugung/erzeugungsanlagen/pv-anlage-geslau-1---de.html","mapTypeLabel":"Photovoltaik­anlage","region":"Bayern"},{"title":"PV-Anlage Rosengarten - DE","longitude":9.722525,"latitude":49.072791,"image":"/content/dam/web18/bilder/gebaeude/kraftwerke/PV-Anlage Rosengarten.jpg","mapType":"photovoltaikanlage","tableItems":[],"path":"/ueber-die-salzburg-ag/unternehmen/erzeugung/erzeugungsanlagen/pv-anlage-rosengarten---de.html","mapTypeLabel":"Photovoltaikanlage","region":"Baden-Württemberg"},{"title":"Wasserkraftwerk Forellenhof","longitude":13.11855,"latitude":47.08748,"image":"/content/dam/web18/bilder/gebaeude/kraftwerke/Forellenhof_aussen.jpg","mapType":"laufkraftwerk","tableItems":[],"path":"/ueber-die-salzburg-ag/unternehmen/erzeugung/erzeugungsanlagen/wasserkraftwerk-forellenhof.html","mapTypeLabel":"Laufkraftwerk","region":"Pongau"},{"title":"Heizwerk Nord Block 2","longitude":13.033926,"latitude":47.827775,"image":"/content/dam/web18/bilder/gebaeude/kraftwerke/Wärmespeicher HKW Nord.jpg","mapType":"heizkraftwerk","tableItems":[],"path":"/ueber-die-salzburg-ag/unternehmen/erzeugung/erzeugungsanlagen/heizwerk-nord-block-2.html","mapTypeLabel":"Heiz(kraft)werk","region":"Stadt Salzburg"},{"title":"Wasserkraftwerk Gries","longitude":12.880528,"latitude":47.285759,"image":"/content/dam/web18/bilder/gebaeude/kraftwerke/KW-Gries.jpg","mapType":"wasserkraftwerk","tableItems":[],"path":"/ueber-die-salzburg-ag/unternehmen/erzeugung/erzeugungsanlagen/wasserkraftwerk-gries0.html","mapTypeLabel":"Wasserkraftwerk","region":"Pinzgau"},{"title":"PV-Anlage Pampow - DE","longitude":14.285429,"latitude":53.537011,"image":"/content/dam/web18/bilder/gebaeude/kraftwerke/PV-Anlage Pampow.jpg","mapType":"photovoltaikanlage","tableItems":[],"path":"/ueber-die-salzburg-ag/unternehmen/erzeugung/erzeugungsanlagen/pv-anlage-pampow---de.html","mapTypeLabel":"Photovoltaikanlage","region":"Mecklenburg-Vorpommern"},{"title":"PV-Anlage Prenzlau - DE","longitude":13.864371,"latitude":53.331155,"image":"/content/dam/web18/bilder/gebaeude/kraftwerke/PV-Anlage Prenzlau.jpg","mapType":"photovoltaikanlage","tableItems":[],"path":"/ueber-die-salzburg-ag/unternehmen/erzeugung/erzeugungsanlagen/pv-anlage-prenzlau---de.html","mapTypeLabel":"Photovoltaikanlage","region":"Brandenburg"},{"title":"PV-Anlage Werkschulheim Felbertal","longitude":13.190231,"latitude":47.772723,"mapType":"photovoltaikanlage","tableItems":[],"path":"/ueber-die-salzburg-ag/unternehmen/erzeugung/erzeugungsanlagen/pv-anlage-werkschulheim-felbertal.html","mapTypeLabel":"Photovoltaikanlage","region":"Tennengau"},{"title":"PV-Anlage Gemeinde Bergheim - Stockhalle","longitude":13.019133,"latitude":47.846373,"mapType":"photovoltaikanlage","tableItems":[],"path":"/ueber-die-salzburg-ag/unternehmen/erzeugung/erzeugungsanlagen/pv-anlage-gemeinde-bergheim---stockhalle.html","mapTypeLabel":"Photovoltaikanlage","region":"Flachgau"},{"title":"PV-Anlage UW Seekirchen","longitude":13.119475,"latitude":47.891630,"mapType":"photovoltaikanlage","tableItems":[],"path":"/ueber-die-salzburg-ag/unternehmen/erzeugung/erzeugungsanlagen/pv-anlage-uw-seekirchen.html","mapTypeLabel":"Photovoltaikanlage","region":"Flachgau"},{"title":"PV-Anlage Mehring - DE","longitude":12.795838,"latitude":48.178657,"image":"/content/dam/web18/bilder/gebaeude/kraftwerke/PV-Anlage Mehring.jpg","mapType":"photovoltaikanlage","tableItems":[],"path":"/ueber-die-salzburg-ag/unternehmen/erzeugung/erzeugungsanlagen/pv-anlage-mehring---de.html","mapTypeLabel":"Photovoltaikanlage","region":"Bayern"},{"title":"PV-Anlage St. Michael","longitude":13.622019,"latitude":47.09373,"mapType":"photovoltaikanlage","tableItems":[],"path":"/ueber-die-salzburg-ag/unternehmen/erzeugung/erzeugungsanlagen/pv-anlage-st--michael.html","mapTypeLabel":"Photovoltaikanlage","region":"Lungau"},{"title":"PV-Anlage Messezentrum","longitude":13.0273507,"latitude":47.8242709,"image":"/content/dam/web18/bilder/gebaeude/kraftwerke/PV-Anlage Messezentrum.jpg","mapType":"photovoltaikanlage","tableItems":[],"path":"/ueber-die-salzburg-ag/unternehmen/erzeugung/erzeugungsanlagen/pv-anlage-messezentrum.html","mapTypeLabel":"Photovoltaikanlage","region":"Stadt Salzburg"},{"title":"PV-Anlage Umspannstation Mittersill","longitude":12.480089,"latitude":47.279452,"image":"/content/dam/web18/bilder/gebaeude/kraftwerke/Wasserkraftwerk Wald.jpg","mapType":"photovoltaikanlage","tableItems":[],"path":"/ueber-die-salzburg-ag/unternehmen/erzeugung/erzeugungsanlagen/pv-anlage-umspannstation-mittersill.html","mapTypeLabel":"Photovoltaikanlage","region":"Pinzgau"},{"title":"Heizwerk Steamblock Mitte","longitude":13.038196,"latitude":47.809199,"image":"/content/dam/web18/bilder/gebaeude/kraftwerke/Heizkraftwerk Salzburg Mitte.jpg","mapType":"heizkraftwerk","tableItems":[],"path":"/ueber-die-salzburg-ag/unternehmen/erzeugung/erzeugungsanlagen/heizwerk-steamblock-mitte.html","mapTypeLabel":"Heiz(kraft)werk","region":"Stadt Salzburg"},{"title":"PV-Anlage Oberradach - DE","longitude":10.274915,"latitude":49.093183,"image":"/content/dam/web18/bilder/gebaeude/kraftwerke/PV-Anlage Oberradach.jpg","mapType":"photovoltaikanlage","tableItems":[],"path":"/ueber-die-salzburg-ag/unternehmen/erzeugung/erzeugungsanlagen/pv-anlage-oberradach---de.html","mapTypeLabel":"Photovoltaikanlage","region":"Bayern"},{"title":"Heizwerk Salk","longitude":13.030712,"latitude":47.806691,"image":"/content/dam/web18/bilder/gebaeude/kraftwerke/PV-Anlage SALK Chirurgie West.jpg","mapType":"heizkraftwerk","tableItems":[],"path":"/ueber-die-salzburg-ag/unternehmen/erzeugung/erzeugungsanlagen/heizwerk-salk.html","mapTypeLabel":"Heiz(kraft)werk","region":"Stadt Salzburg"},{"title":"PV-Anlage Umspannstation Maxglan","longitude":13.018678,"latitude":47.7919666,"image":"/content/dam/web18/bilder/gebaeude/kraftwerke/PV-Anlage Umspannstation Maxglan.jpg","mapType":"photovoltaikanlage","tableItems":[],"path":"/ueber-die-salzburg-ag/unternehmen/erzeugung/erzeugungsanlagen/pv-anlage-umspannstation-maxglan.html","mapTypeLabel":"Photovoltaikanlage","region":"Salzburg"},{"title":"PV-Anlage Bayerhamerstraße","longitude":13.050443,"latitude":47.810812,"image":"/content/dam/web18/bilder/gebaeude/kraftwerke/PV-Anlage Bayerhamerstraße.jpg","mapType":"photovoltaikanlage","tableItems":[],"path":"/ueber-die-salzburg-ag/unternehmen/erzeugung/erzeugungsanlagen/pv-anlage-bayerhamerstrasse.html","mapTypeLabel":"Photovoltaikanlage","region":"Stadt Salzburg"},{"title":"Wasserkraftwerk Sohlstufe Hallein","longitude":13.08778,"latitude":47.687435,"image":"/content/dam/web18/bilder/gebaeude/kraftwerke/Wasserkraftwerk Sohlstufe Hallein.jpg","mapType":"wasserkraftwerk","tableItems":[],"path":"/ueber-die-salzburg-ag/unternehmen/erzeugung/erzeugungsanlagen/wasserkraftwerk-sohlstufe-hallein.html","mapTypeLabel":"Wasserkraftwerk","region":"Tennengau"},{"title":"Wasserkraftwerk Werfen/Pfarrwerfen","longitude":13.194875,"latitude":47.472322,"image":"/content/dam/web18/bilder/gebaeude/kraftwerke/KW_Werfen_Pfarrwerfen.jpg","mapType":"wasserkraftwerk","tableItems":[],"path":"/ueber-die-salzburg-ag/unternehmen/erzeugung/erzeugungsanlagen/wasserkraftwerk-werfen-pfarrwerfen.html","mapTypeLabel":"Wasserkraftwerk","region":"Pongau"},{"title":"Biogasanlage Graskraft Reitbach","longitude":13.227539,"latitude":48.027591,"image":"/content/dam/web18/bilder/gebaeude/kraftwerke/Biomasse HKW Graskraftwerk Reitbach.jpg","mapType":"biomasse","tableItems":[],"path":"/ueber-die-salzburg-ag/unternehmen/erzeugung/erzeugungsanlagen/biomasse-hkw-graskraftwerk-reitbach.html","mapTypeLabel":"Biomasse-Heiz(kraft)werk","region":"Flachgau"},{"title":"Wärmespeicher HKW Nord","longitude":13.032365,"latitude":47.826694,"image":"/content/dam/web18/bilder/gebaeude/kraftwerke/Wärmespeicher HKW Nord.jpg","mapType":"warmespeicher","tableItems":[],"path":"/ueber-die-salzburg-ag/unternehmen/erzeugung/erzeugungsanlagen/waermespeicher-hkw-nord.html","mapTypeLabel":"Wärmespeicher","region":"Stadt Salzburg"},{"title":"Biomasse Heizwerk Radstadt","longitude":13.472114,"latitude":47.381527,"image":"/content/dam/web18/bilder/gebaeude/kraftwerke/Biomasse Heizwerk Radstadt.jpg","mapType":"biomasse","tableItems":[],"path":"/ueber-die-salzburg-ag/unternehmen/erzeugung/erzeugungsanlagen/biomasse-heizwerk-radstadt.html","mapTypeLabel":"Biomasse-Heiz(kraft)werk","region":"Pongau"},{"title":"Heizwerk Schwarzenbergkaserne","longitude":12.989037,"latitude":47.804998,"mapType":"heizkraftwerk","tableItems":[],"path":"/ueber-die-salzburg-ag/unternehmen/erzeugung/erzeugungsanlagen/heizwerk-schwarzenbergkaserne.html","mapTypeLabel":"Heiz(kraft)werk","region":"Flachgau"},{"title":"PV-Anlage Frankenhardt - DE","longitude":9.954053,"latitude":49.112914,"image":"/content/dam/web18/bilder/gebaeude/kraftwerke/PV-Anlage Frankenhardt.jpg","mapType":"photovoltaikanlage","tableItems":[],"path":"/ueber-die-salzburg-ag/unternehmen/erzeugung/erzeugungsanlagen/pv-anlage-frankenhardt---de.html","mapTypeLabel":"Photovoltaikanlage","region":"Baden-Württemberg"},{"title":"Wasserkraftwerk Hintermuhr","longitude":13.477972,"latitude":47.102878,"image":"/content/dam/web18/bilder/gebaeude/kraftwerke/Wasserkraftwerk Hintermuhr.jpg","mapType":"wasserkraftwerk","tableItems":[],"path":"/ueber-die-salzburg-ag/unternehmen/erzeugung/erzeugungsanlagen/wasserkraftwerk-hintermuhr.html","mapTypeLabel":"Wasserkraftwerk","region":"Lungau"},{"title":"Wasserkraftwerk Rott","longitude":12.994305,"latitude":47.835006,"image":"/content/dam/web18/bilder/gebaeude/kraftwerke/Wasserkraftwerk Rott.jpg","mapType":"wasserkraftwerk","tableItems":[],"path":"/ueber-die-salzburg-ag/unternehmen/erzeugung/erzeugungsanlagen/wasserkraftwerk-rott.html","mapTypeLabel":"Wasserkraftwerk","region":"Flachgau"},{"title":"Heizwerk Elsbethen","longitude":13.082743,"latitude":47.761311,"image":"/content/dam/web18/bilder/gebaeude/kraftwerke/Heizwerk Elsbethen.jpg","mapType":"heizkraftwerk","tableItems":[],"path":"/ueber-die-salzburg-ag/unternehmen/erzeugung/erzeugungsanlagen/heizwerk-elsbethen.html","mapTypeLabel":"Heiz(kraft)werk","region":"Flachgau"},{"title":"Biomasse Heizwerk Bramberg","longitude":12.358696,"latitude":47.275153,"image":"/content/dam/web18/bilder/gebaeude/kraftwerke/Biomasse Heizkraftwerk Bramberg.jpg","mapType":"biomasse","tableItems":[],"path":"/ueber-die-salzburg-ag/unternehmen/erzeugung/erzeugungsanlagen/biomasse-heizwerk-bramberg.html","mapTypeLabel":"Biomasse-Heiz(kraft)werk","region":"Pinzgau"},{"title":"PV-Anlage Löcknitz - DE","longitude":14.208085,"latitude":53.461865,"image":"/content/dam/web18/bilder/gebaeude/kraftwerke/PV-Anlage Löcknitz.jpg","mapType":"photovoltaikanlage","tableItems":[],"path":"/ueber-die-salzburg-ag/unternehmen/erzeugung/erzeugungsanlagen/pv-anlage-loecknitz---de.html","mapTypeLabel":"Photovoltaikanlage","region":"Mecklenburg-Vorpommern"},{"title":"Abwärmeanlage AustroCel Hallein","longitude":13.108706,"latitude":47.675227,"image":"/content/dam/web18/bilder/gebaeude/kraftwerke/Abwärmeanlage AustroCel Hallein.jpg","mapType":"abwaermeanlagen","tableItems":[],"path":"/ueber-die-salzburg-ag/unternehmen/erzeugung/erzeugungsanlagen/abwaermeanlage-austrocel-hallein.html","mapTypeLabel":"Abwärmeanlagen","region":"Tennengau"},{"title":"Wasserkraftwerk Zederhaus","longitude":13.470612,"latitude":47.164728,"image":"/content/dam/web18/bilder/gebaeude/kraftwerke/Wasserkraftwerk Zederhaus.jpg","mapType":"wasserkraftwerk","tableItems":[],"path":"/ueber-die-salzburg-ag/unternehmen/erzeugung/erzeugungsanlagen/wasserkraftwerk-zederhaus.html","mapTypeLabel":"Wasserkraftwerk","region":"Lungau"},{"title":"Wasserkraftwerk Urreiting","longitude":13.209772,"latitude":47.375047,"image":"/content/dam/web18/bilder/gebaeude/kraftwerke/Wasserkraftwerk Urreiting.jpg","mapType":"wasserkraftwerk","tableItems":[],"path":"/ueber-die-salzburg-ag/unternehmen/erzeugung/erzeugungsanlagen/wasserkraftwerk-urreiting.html","mapTypeLabel":"Wasserkraftwerk","region":"Pongau"},{"title":"Wasserkraftwerk Rotgülden","longitude":13.458686,"latitude":47.112707,"image":"/content/dam/web18/bilder/gebaeude/kraftwerke/Wasserkraftwerk Rotgülden.jpg","mapType":"wasserkraftwerk","tableItems":[],"path":"/ueber-die-salzburg-ag/unternehmen/erzeugung/erzeugungsanlagen/wasserkraftwerk-rotguelden.html","mapTypeLabel":"Wasserkraftwerk","region":"Lungau"},{"title":"Wasserkraftwerk Strubklamm","longitude":13.185048,"latitude":47.76227,"image":"/content/dam/web18/bilder/gebaeude/kraftwerke/Wasserkraftwerk Strubklamm.jpg","mapType":"wasserkraftwerk","tableItems":[],"path":"/ueber-die-salzburg-ag/unternehmen/erzeugung/erzeugungsanlagen/wasserkraftwerk-strubklamm.html","mapTypeLabel":"Wasserkraftwerk","region":"Tennengau"},{"title":"PV-Anlage Kirchheim - DE","longitude":11.757978,"latitude":48.157314,"image":"/content/dam/web18/bilder/gebaeude/kraftwerke/PV-Anlage Kirchheim.jpg","mapType":"photovoltaikanlage","tableItems":[],"path":"/ueber-die-salzburg-ag/unternehmen/erzeugung/erzeugungsanlagen/pv-anlage-kirchheim-1-2---de.html","mapTypeLabel":"Photovoltaikanlage","region":"Bayern"},{"title":"Wasserkraftwerk Bischofshofen","longitude":13.220304,"latitude":47.40702,"image":"/content/dam/web18/bilder/gebaeude/kraftwerke/Wasserkraftwerk Bischofshofen.jpg","mapType":"wasserkraftwerk","tableItems":[],"path":"/ueber-die-salzburg-ag/unternehmen/erzeugung/erzeugungsanlagen/wasserkraftwerk-bischofshofen.html","mapTypeLabel":"Wasserkraftwerk","region":"Pongau"},{"title":"PV-Anlage Steinsfeld - DE","longitude":10.24091,"latitude":49.434185,"image":"/content/dam/web18/bilder/gebaeude/kraftwerke/PV-Anlage Steinsfeld.jpg","mapType":"photovoltaikanlage","tableItems":[],"path":"/ueber-die-salzburg-ag/unternehmen/erzeugung/erzeugungsanlagen/pv-anlage-steinsfeld---de.html","mapTypeLabel":"Photovoltaikanlage","region":"Bayern"},{"title":"Wasserkraftwerk Hammer","longitude":13.110595,"latitude":47.699914,"image":"/content/dam/web18/bilder/gebaeude/kraftwerke/Wasserkraftwerk Hammer.jpg","mapType":"wasserkraftwerk","tableItems":[],"path":"/ueber-die-salzburg-ag/unternehmen/erzeugung/erzeugungsanlagen/wasserkraftwerk-hammer.html","mapTypeLabel":"Wasserkraftwerk","region":"Tennengau"},{"title":"PV-Anlage Heizwerk Hallein","longitude":13.1023094,"latitude":47.6751426,"image":"/content/dam/web18/bilder/gebaeude/kraftwerke/PV-Anlage Heizwerk Hallein.jpg","mapType":"photovoltaikanlage","tableItems":[],"path":"/ueber-die-salzburg-ag/unternehmen/erzeugung/erzeugungsanlagen/pv-anlage-heizwerk-hallein.html","mapTypeLabel":"Photovoltaikanlage","region":"Tennengau"},{"title":"Biomasse Heizwerk Bruck a. d. Glocknerstraße","longitude":12.828185,"latitude":47.282009,"image":"/content/dam/web18/bilder/gebaeude/kraftwerke/Biomasse Heizwerk Bruck a.d. Glocknerstraße.jpg","mapType":"biomasse","tableItems":[],"path":"/ueber-die-salzburg-ag/unternehmen/erzeugung/erzeugungsanlagen/biomasse-heizwerk-bruck-a-d--glocknerstrasse.html","mapTypeLabel":"Biomasse-Heiz(kraft)werk","region":"Pinzgau"},{"title":"Wasserkraftwerk Remsach","longitude":13.12746,"latitude":47.136636,"image":"/content/dam/web18/bilder/gebaeude/kraftwerke/Wasserkraftwerk Remsach.jpg","mapType":"wasserkraftwerk","tableItems":[],"path":"/ueber-die-salzburg-ag/unternehmen/erzeugung/erzeugungsanlagen/wasserkraftwerk-remsach.html","mapTypeLabel":"Wasserkraftwerk","region":"Pongau"},{"title":"Wasserkraftwerk Murfall","longitude":13.471368,"latitude":47.108063,"image":"/content/dam/web18/bilder/gebaeude/kraftwerke/Wasserkraftwerk Murfall.jpg","mapType":"wasserkraftwerk","tableItems":[],"path":"/ueber-die-salzburg-ag/unternehmen/erzeugung/erzeugungsanlagen/wasserkraftwerk-murfall.html","mapTypeLabel":"Wasserkraftwerk","region":"Lungau"},{"title":"Heizkraftwerk Salzburg Nord","longitude":13.033985,"latitude":47.827465,"image":"/content/dam/web18/bilder/gebaeude/kraftwerke/Heizkraftwerk Salzburg Nord.jpg","mapType":"heizkraftwerk","tableItems":[],"path":"/ueber-die-salzburg-ag/unternehmen/erzeugung/erzeugungsanlagen/heizkraftwerk-salzburg-nord.html","mapTypeLabel":"Heiz(kraft)werk","region":"Stadt Salzburg"},{"title":"Wasserkraftwerk St. Johann im Pongau","longitude":13.197359,"latitude":47.338434,"image":"/content/dam/web18/bilder/gebaeude/kraftwerke/Wasserkraftwerk St.Johann.jpg","mapType":"wasserkraftwerk","tableItems":[],"path":"/ueber-die-salzburg-ag/unternehmen/erzeugung/erzeugungsanlagen/wasserkraftwerk-st--johann.html","mapTypeLabel":"Wasserkraftwerk","region":"Pongau"},{"title":"Wasserkraftwerk Bachwinkl","longitude":12.857056,"latitude":47.449689,"image":"/content/dam/web18/bilder/gebaeude/kraftwerke/Wasserkraftwerk Bachwinkl.jpg","mapType":"wasserkraftwerk","tableItems":[],"path":"/ueber-die-salzburg-ag/unternehmen/erzeugung/erzeugungsanlagen/wasserkraftwerk-bachwinkl.html","mapTypeLabel":"Wasserkraftwerk","region":"Pinzgau"},{"title":"Wasserkraftwerk Gamp","longitude":13.109205,"latitude":47.672775,"image":"/content/dam/web18/bilder/gebaeude/kraftwerke/Wasserkraftwerk Gamp.jpg","mapType":"wasserkraftwerk","tableItems":[],"path":"/ueber-die-salzburg-ag/unternehmen/erzeugung/erzeugungsanlagen/wasserkraftwerk-gamp.html","mapTypeLabel":"Wasserkraftwerk","region":"Tennengau"},{"title":"PV-Anlage St. Johann","longitude":13.199328,"latitude":47.355266,"image":"/content/dam/web18/bilder/gebaeude/kraftwerke/PV-Anlage St.Johann.jpg","mapType":"photovoltaikanlage","tableItems":[],"path":"/ueber-die-salzburg-ag/unternehmen/erzeugung/erzeugungsanlagen/pv-anlage-st--johann.html","mapTypeLabel":"Photovoltaikanlage","region":"Pongau"},{"title":"Heizkraftwerk Salzburg Mitte","longitude":13.037718,"latitude":47.809465,"image":"/content/dam/web18/bilder/gebaeude/kraftwerke/Heizkraftwerk Salzburg Mitte.jpg","mapType":"heizkraftwerk","tableItems":[],"path":"/ueber-die-salzburg-ag/unternehmen/erzeugung/erzeugungsanlagen/heizkraftwerk-salzburg-mitte.html","mapTypeLabel":"Heiz(kraft)werk","region":"Stadt Salzburg"},{"title":"Wasserkraftwerk Bärenwerk","longitude":12.816882,"latitude":47.175508,"image":"/content/dam/web18/bilder/gebaeude/kraftwerke/Wasserkraftwerk Bärenwerk.jpg","mapType":"wasserkraftwerk","tableItems":[],"path":"/ueber-die-salzburg-ag/unternehmen/erzeugung/erzeugungsanlagen/wasserkraftwerk-baerenwerk.html","mapTypeLabel":"Wasserkraftwerk","region":"Pinzgau"},{"title":"Wasserkraftwerk Urstein","longitude":13.082635,"latitude":47.733363,"image":"/content/dam/web18/bilder/gebaeude/kraftwerke/Wasserkraftwerk Urstein.jpg","mapType":"wasserkraftwerk","tableItems":[],"path":"/ueber-die-salzburg-ag/unternehmen/erzeugung/erzeugungsanlagen/wasserkraftwerk-urstein.html","mapTypeLabel":"Wasserkraftwerk","region":"Tennengau"},{"title":"PV-Anlage Blankensee - DE","longitude":14.304089,"latitude":53.514563,"image":"/content/dam/web18/bilder/gebaeude/kraftwerke/PV-Anlage Blankensee.jpg","mapType":"photovoltaikanlage","tableItems":[],"path":"/ueber-die-salzburg-ag/unternehmen/erzeugung/erzeugungsanlagen/pv-anlage-blankensee---de.html","mapTypeLabel":"Photovoltaikanlage","region":"Mecklenburg-Vorpommern"},{"title":"Wasserkraftwerk Wald im Pinzgau","longitude":12.230208,"latitude":47.243945,"image":"/content/dam/web18/bilder/gebaeude/kraftwerke/KW_Wald.jpg","mapType":"wasserkraftwerk","tableItems":[],"path":"/ueber-die-salzburg-ag/unternehmen/erzeugung/erzeugungsanlagen/wasserkraftwerk-wald.html","mapTypeLabel":"Wasserkraftwerk","region":"Pinzgau"},{"title":"Wasserkraftwerk Kreuzbergmaut","longitude":13.210459,"latitude":47.441296,"image":"/content/dam/web18/bilder/gebaeude/kraftwerke/Wasserkraftwerk Kreuzbergmaut.jpg","mapType":"wasserkraftwerk","tableItems":[],"path":"/ueber-die-salzburg-ag/unternehmen/erzeugung/erzeugungsanlagen/wasserkraftwerk-kreuzbergmaut.html","mapTypeLabel":"Wasserkraftwerk","region":"Pongau"},{"title":"PV-Anlage SALK/Chirurgie West ","longitude":13.028224,"latitude":47.805375,"image":"/content/dam/web18/bilder/gebaeude/kraftwerke/PV-Anlage SALK Chirurgie West.jpg","mapType":"photovoltaikanlage","tableItems":[],"path":"/ueber-die-salzburg-ag/unternehmen/erzeugung/erzeugungsanlagen/pv-anlage-salk-chirurgie-west-.html","mapTypeLabel":"Photovoltaikanlage","region":"Salzburg"},{"title":"Wasserkraftwerk Wiestal-Ausgleichsbecken","longitude":13.135378,"latitude":47.715508,"image":"/content/dam/web18/bilder/gebaeude/kraftwerke/Wasserkraftwerk Wiestal Ausgleichsbecken.jpg","mapType":"wasserkraftwerk","tableItems":[],"path":"/ueber-die-salzburg-ag/unternehmen/erzeugung/erzeugungsanlagen/wasserkraftwerk-wiestal-ausgleichsbecken.html","mapTypeLabel":"Wasserkraftwerk","region":"Tennengau"},{"title":"Wasserkraftwerk Sohlstufe Lehen","longitude":13.034416,"latitude":47.821454,"image":"/content/dam/web18/bilder/gebaeude/kraftwerke/Wasserkraftwerk Sohlstufe Lehen.jpg","mapType":"wasserkraftwerk","tableItems":[],"path":"/ueber-die-salzburg-ag/unternehmen/erzeugung/erzeugungsanlagen/wasserkraftwerk-sohlstufe-lehen.html","mapTypeLabel":"Wasserkraftwerk","region":"Stadt Salzburg"},{"title":"PV-Anlage Geslau 2 - DE","longitude":10.308207,"latitude":49.363441,"image":"/content/dam/web18/bilder/gebaeude/kraftwerke/PV-Anlage Geslau.jpg","mapType":"photovoltaikanlage","tableItems":[],"path":"/ueber-die-salzburg-ag/unternehmen/erzeugung/erzeugungsanlagen/pv-anlage-geslau---de.html","mapTypeLabel":"Photovoltaikanlage","region":"Bayern"},{"title":"PV-Anlage Salzburger Sonnengemeinschaft","longitude":13.189602,"latitude":47.772834,"image":"/content/dam/web18/bilder/gebaeude/kraftwerke/PV-Anlage Salzburger Sonnengemeinschaft.jpg","mapType":"photovoltaikanlage","tableItems":[],"path":"/ueber-die-salzburg-ag/unternehmen/erzeugung/erzeugungsanlagen/pv-anlage-salzburger-sonnengemeinschaft.html","mapTypeLabel":"Photovoltaikanlage","region":"Salzburg"},{"title":"Wasserkraftwerk Böckstein","longitude":13.113835,"latitude":47.086795,"image":"/content/dam/web18/bilder/gebaeude/kraftwerke/Wasserkraftwerk Böckstein.jpg","mapType":"wasserkraftwerk","tableItems":[],"path":"/ueber-die-salzburg-ag/unternehmen/erzeugung/erzeugungsanlagen/wasserkraftwerk-boeckstein.html","mapTypeLabel":"Wasserkraftwerk","region":"Pongau"},{"title":"PV-Anlage Flughafen Salzburg","longitude":12.996212,"latitude":47.795647,"image":"/content/dam/web18/bilder/gebaeude/kraftwerke/PV-Anlage Flughafen Salzburg.jpg","mapType":"photovoltaikanlage","tableItems":[],"path":"/ueber-die-salzburg-ag/unternehmen/erzeugung/erzeugungsanlagen/pv-anlage-flughafen-salzburg.html","mapTypeLabel":"Photovoltaikanlage","region":"Flachgau"},{"title":"Wasserkraftwerk Wiestal","longitude":13.142585,"latitude":47.724306,"image":"/content/dam/web18/bilder/gebaeude/kraftwerke/Kraftwerk_Wiestal.jpg","mapType":"wasserkraftwerk","tableItems":[],"path":"/ueber-die-salzburg-ag/unternehmen/erzeugung/erzeugungsanlagen/wasserkraftwerk-wiestal.html","mapTypeLabel":"Wasserkraftwerk","region":"Tennengau"},{"title":"Biogas-Blockheizkraftwerk Austrocel Hallein","longitude":13.109329,"latitude":47.674469,"image":"/content/dam/web18/bilder/gebaeude/kraftwerke/Heizwerk - Biogas Blockheizkraftwerk Hallein.jpg","mapType":"heizkraftwerk","tableItems":[],"path":"/ueber-die-salzburg-ag/unternehmen/erzeugung/erzeugungsanlagen/heizwerk---biogas-blockheizkraftwerk-hallein.html","mapTypeLabel":"Heiz(kraft)werk","region":"Tennengau"},{"title":"Wasserkraftwerk Hollersbach","longitude":12.413135,"latitude":47.266883,"image":"/content/dam/web18/bilder/gebaeude/kraftwerke/KW_Hollersbach.jpg","mapType":"wasserkraftwerk","tableItems":[],"path":"/ueber-die-salzburg-ag/unternehmen/erzeugung/erzeugungsanlagen/wasserkraftwerk-hollersbach.html","mapTypeLabel":"Wasserkraftwerk","region":"Pinzgau"},{"title":"Wasserkraftwerk Eichetmühle","longitude":13.036343,"latitude":47.750627,"image":"/content/dam/web18/bilder/gebaeude/kraftwerke/Wasserkraftwerk Eichetmühle.jpg","mapType":"wasserkraftwerk","tableItems":[],"path":"/ueber-die-salzburg-ag/unternehmen/erzeugung/erzeugungsanlagen/wasserkraftwerk-eichetmuehle.html","mapTypeLabel":"Wasserkraftwerk","region":"Flachgau"},{"title":"Abwärmeanlage Kaindl","longitude":12.998865,"latitude":47.823885,"image":"/content/dam/web18/bilder/gebaeude/kraftwerke/Abwaerme_Sulzau_Werfen.jpg","mapType":"abwaermeanlagen","tableItems":[],"path":"/ueber-die-salzburg-ag/unternehmen/erzeugung/erzeugungsanlagen/abwaermeanlage-kaindl.html","mapTypeLabel":"Abwärmeanlagen","region":"Stadt Salzburg"},{"title":"Biomasse Heizkraftwerk Siezenheim","longitude":12.982616,"latitude":47.819241,"image":"/content/dam/web18/bilder/gebaeude/kraftwerke/Biomasse Heizkraftwerk Siezenheim.jpg","mapType":"biomasse","tableItems":[],"path":"/ueber-die-salzburg-ag/unternehmen/erzeugung/erzeugungsanlagen/biomasse-heizkraftwerk-siezenheim.html","mapTypeLabel":"Biomasse-Heiz(kraft)werk","region":"Flachgau"},{"title":"PV-Anlage HTL Salzburg","longitude":13.046082,"latitude":47.821297,"image":"/content/dam/web18/bilder/gebaeude/kraftwerke/PV-Anlage HTL Salzburg.jpg","mapType":"photovoltaikanlage","tableItems":[],"path":"/ueber-die-salzburg-ag/unternehmen/erzeugung/erzeugungsanlagen/pv-anlage-htl-salzburg.html","mapTypeLabel":"Photovoltaikanlage","region":"Stadt Salzburg"},{"title":"Wasserkraftwerk Dießbach","longitude":12.825851,"latitude":47.487658,"image":"/content/dam/web18/bilder/gebaeude/kraftwerke/Wasserkraftwerk Diessbach.jpg","mapType":"wasserkraftwerk","tableItems":[],"path":"/ueber-die-salzburg-ag/unternehmen/erzeugung/erzeugungsanlagen/wasserkraftwerk-diessbach.html","mapTypeLabel":"Wasserkraftwerk","region":"Pinzgau"},{"title":"Wasserkraftwerk Nassfeld","longitude":13.062206,"latitude":47.066556,"image":"/content/dam/web18/bilder/gebaeude/kraftwerke/Wasserkraftwerk Nassfeld.jpg","mapType":"wasserkraftwerk","tableItems":[],"path":"/ueber-die-salzburg-ag/unternehmen/erzeugung/erzeugungsanlagen/wasserkraftwerk-nassfeld.html","mapTypeLabel":"Wasserkraftwerk","region":"Pongau"},{"title":"Biomasse Heizwerk Fusch a. d. Glocknerstrasse","longitude":12.831452,"latitude":47.209584,"image":"/content/dam/web18/bilder/gebaeude/kraftwerke/Biomasse Heizwerk Fusch a.d. Glocknerstraße.jpg","mapType":"biomasse","tableItems":[],"path":"/ueber-die-salzburg-ag/unternehmen/erzeugung/erzeugungsanlagen/biomasse-heizwerk-fusch-a-d--glocknerstrasse.html","mapTypeLabel":"Biomasse-Heiz(kraft)werk","region":"Pinzgau"},{"title":"Heizwerk Hallein","longitude":13.102307,"latitude":47.675123,"image":"/content/dam/web18/bilder/gebaeude/kraftwerke/Heizwerk Hallein.jpg","mapType":"heizkraftwerk","tableItems":[],"path":"/ueber-die-salzburg-ag/unternehmen/erzeugung/erzeugungsanlagen/heizwerk-hallein.html","mapTypeLabel":"Heiz(kraft)werk","region":"Tennengau"},{"title":"Biogasanlage Graskraft Steindorf","longitude":13.242353,"latitude":47.963229,"image":"/content/dam/web18/bilder/gebaeude/kraftwerke/Biomasse Graskraftwerk Steindorf.jpg","mapType":"biomasse","tableItems":[],"path":"/ueber-die-salzburg-ag/unternehmen/erzeugung/erzeugungsanlagen/biomasse-graskraftwerk-steindorf.html","mapTypeLabel":"Biomasse-Heiz(kraft)werk","region":"Flachgau"},{"title":"PV-Anlage Hagebaumarkt, Freilassing - DE","longitude":12.975841,"latitude":47.83586,"image":"/content/dam/web18/bilder/gebaeude/kraftwerke/PV-Anlage Freilassing.jpg","mapType":"photovoltaikanlage","tableItems":[],"path":"/ueber-die-salzburg-ag/unternehmen/erzeugung/erzeugungsanlagen/pv-anlage-freilassing---de.html","mapTypeLabel":"Photovoltaikanlage","region":"Bayern"},{"title":"PV-Anlage Chieming - DE","longitude":12.535384,"latitude":47.910906,"image":"/content/dam/web18/bilder/gebaeude/kraftwerke/PV-Anlage Chieming.jpg","mapType":"photovoltaikanlage","tableItems":[],"path":"/ueber-die-salzburg-ag/unternehmen/erzeugung/erzeugungsanlagen/pv-anlage-chieming---de.html","mapTypeLabel":"Photovoltaikanlage","region":"Bayern"},{"title":"Biomasse Heizwerk Wald im Pinzgau","longitude":12.230208,"latitude":47.243959,"image":"/content/dam/web18/bilder/gebaeude/kraftwerke/Biomasse Heizwerk Wald Pinzgau.jpg","mapType":"biomasse","tableItems":[],"path":"/ueber-die-salzburg-ag/unternehmen/erzeugung/erzeugungsanlagen/biomasse-heizwerk-wald---pinzgau.html","mapTypeLabel":"Biomasse-Heiz(kraft)werk","region":"Pinzgau"},{"title":"Wasserkraftwerk Trattenbach","longitude":12.221209,"latitude":47.282954,"image":"/content/dam/web18/bilder/gebaeude/kraftwerke/Wasserkraftwerk Trattenbach1.jpg","mapType":"wasserkraftwerk","tableItems":[],"path":"/ueber-die-salzburg-ag/unternehmen/erzeugung/erzeugungsanlagen/wasserkraftwerk-trattenbach.html","mapTypeLabel":"Wasserkraftwerk","region":"Pinzgau"},{"title":"Biomasse Heizwerk Saalfelden","longitude":12.848333,"latitude":47.426944,"image":"/content/dam/web18/bilder/gebaeude/kraftwerke/Biomasse Heizwerk Saalfelden.jpg","mapType":"biomasse","tableItems":[],"path":"/ueber-die-salzburg-ag/unternehmen/erzeugung/erzeugungsanlagen/biomasse-heizwerk-saalfelden.html","mapTypeLabel":"Biomasse-Heiz(kraft)werk","region":"Pinzgau"},{"title":"Wasserkraftwerk Fritzbach","longitude":13.2231224,"latitude":47.4415857,"image":"/content/dam/web18/bilder/gebaeude/kraftwerke/Wasserkraftwerk Fritzbach.jpg","mapType":"wasserkraftwerk","tableItems":[],"path":"/ueber-die-salzburg-ag/unternehmen/erzeugung/erzeugungsanlagen/wasserkraftwerk-fritzbach.html","mapTypeLabel":"Wasserkraftwerk","region":"Pongau"}]